[{"type":"Feature","properties":{"pointType":"Label","name":"Mons Usov","terrainType":"Mountain","name origin":"Mikhail Usov, geologist","height":"-","diameter":"15 km"},"geometry":{"type":"Point","coordinates":[63.26,11.91]}},{"type":"Feature","properties":{"pointType":"Label","name":"Mons Ganau","terrainType":"Mountain","name origin":" African masculine name","height":"-","diameter":"14 km"},"geometry":{"type":"Point","coordinates":[120.59,4.79]}},{"type":"Feature","properties":{"pointType":"Label","name":"Mons Ardeshir","terrainType":"Mountain","name origin":"Ardeshir (Ardashir), Persian male name","height":"-","diameter":"8 km"},"geometry":{"type":"Point","coordinates":[121.04,5.03]}},{"type":"Feature","properties":{"pointType":"Label","name":"Mons Dilip","terrainType":"Mountain","name origin":"Indian masculine name","height":"-","diameter":"2 km"},"geometry":{"type":"Point","coordinates":[120.87,5.58]}},{"type":"Feature","properties":{"pointType":"Label","name":"Mons André","terrainType":"Mountain","name origin":"French masculine name","height":"-","diameter":"10 km"},"geometry":{"type":"Point","coordinates":[120.56,5.18]}},{"type":"Feature","properties":{"pointType":"Label","name":"Mons Dieter","terrainType":"Mountain","name origin":" German masculine name","height":"-","diameter":"20 km"},"geometry":{"type":"Point","coordinates":[120.3,5]}},{"type":"Feature","properties":{"pointType":"Label","name":"Montes Taurus","terrainType":"Mountain range","name origin":"Taurus Mountains, Asia Minor","height":"-","diameter":"172 km"},"geometry":{"type":"Point","coordinates":[40.34,27.32]}},{"type":"Feature","properties":{"pointType":"Label","name":"Montes Secchi","terrainType":"Mountain range","name origin":"Named after nearby crater Secchi","height":"-","diameter":"50 km"},"geometry":{"type":"Point","coordinates":[43.17,2.72]}},{"type":"Feature","properties":{"pointType":"Label","name":"Montes Pyrenaeus","terrainType":"Mountain range","name origin":"The Pyrenees Mountains, Europe","height":"-","diameter":"164 km"},"geometry":{"type":"Point","coordinates":[41.51,-14.05]}},{"type":"Feature","properties":{"pointType":"Label","name":"Mons Penck","terrainType":"Mountain","name origin":"Albrecht Penck, geographer","height":"4 km","diameter":"30 km"},"geometry":{"type":"Point","coordinates":[21.74,-10]}},{"type":"Feature","properties":{"pointType":"Label","name":"Mons Vitruvius","terrainType":"Mountain","name origin":" Named after nearby crater Vitruvius","height":"2.3 km","diameter":"15 km"},"geometry":{"type":"Point","coordinates":[30.74,19.33]}},{"type":"Feature","properties":{"pointType":"Label","name":"Mons Esam","terrainType":"Mountain","name origin":"Arabic masculine name","height":"-","diameter":"8 km"},"geometry":{"type":"Point","coordinates":[35.71,14.61]}},{"type":"Feature","properties":{"pointType":"Label","name":"Mons Maraldi","terrainType":"Mountain","name origin":"Named after nearby crater Maraldi","height":"1.3 km","diameter":"15 km"},"geometry":{"type":"Point","coordinates":[35.5,20.34]}},{"type":"Feature","properties":{"pointType":"Label","name":"Mons Argaeus","terrainType":"Mountain","name origin":"Mount Erciyes, Asia Minor","height":"-","diameter":"50 km"},"geometry":{"type":"Point","coordinates":[29.01,19.33]}},{"type":"Feature","properties":{"pointType":"Label","name":"Mons Moro","terrainType":"Mountain","name origin":"Antonio Lazzaro Moro, scientist","height":"-","diameter":"10 km"},"geometry":{"type":"Point","coordinates":[-19.84,-11.84]}},{"type":"Feature","properties":{"pointType":"Label","name":"Montes Riphaeus","terrainType":"Mountain range","name origin":"Greek name for the Ural Mountains, Russia","height":"-","diameter":"189 km"},"geometry":{"type":"Point","coordinates":[-27.6,-7.48]}},{"type":"Feature","properties":{"pointType":"Label","name":"Mons Hansteen","terrainType":"Mountain","name origin":"Named after nearby crater Hansteen","height":"-","diameter":"30 km"},"geometry":{"type":"Point","coordinates":[-50.21,-12.19]}},{"type":"Feature","properties":{"pointType":"Label","name":"Montes Cordillera","terrainType":"Mountain range","name origin":"Spanish for \"mountain chain\"","height":"-","diameter":"574 km"},"geometry":{"type":"Point","coordinates":[-79.5,-17.5]}},{"type":"Feature","properties":{"pointType":"Label","name":"Montes Rook","terrainType":"Mountain range","name origin":"Lawrence Rook, astronomer","height":"-","diameter":"791 km"},"geometry":{"type":"Point","coordinates":[-82.5,-20.6]}},{"type":"Feature","properties":{"pointType":"Label","name":"Mons Herodotus","terrainType":"Mountain","name origin":"Named after nearby crater Herodotus","height":"-","diameter":"5 km"},"geometry":{"type":"Point","coordinates":[-52.94,27.5]}},{"type":"Feature","properties":{"pointType":"Label","name":"Montes Agricola","terrainType":"Mountain range","name origin":"Georgius Agricola, scientist ","height":"-","diameter":"141 km"},"geometry":{"type":"Point","coordinates":[-54.07,29.06]}},{"type":"Feature","properties":{"pointType":"Label","name":"Mons Rümker","terrainType":"Mountain","name origin":"Karl Ludwig Christian Rümker, astronomer","height":"0.5 km","diameter":"70 km"},"geometry":{"type":"Point","coordinates":[-58.38,40.76]}},{"type":"Feature","properties":{"pointType":"Label","name":"Mons Gruithuisen Gamma","terrainType":"Mountain","name origin":"Named after nearby crater Gruithuisen","height":"-","diameter":"20 km"},"geometry":{"type":"Point","coordinates":[-40.72,36.56]}},{"type":"Feature","properties":{"pointType":"Label","name":"Mons Gruithuisen Delta","terrainType":"Mountain","name origin":"Named after nearby crater Gruithuisen","height":"-","diameter":"20 km"},"geometry":{"type":"Point","coordinates":[-39.59,36.07]}},{"type":"Feature","properties":{"pointType":"Label","name":"Montes Harbinger","terrainType":"Mountain range","name origin":"Harbingers of dawn on the crater Aristarchus","height":"-","diameter":"90 km"},"geometry":{"type":"Point","coordinates":[-41.29,26.89]}},{"type":"Feature","properties":{"pointType":"Label","name":"Mons Delisle","terrainType":"Mountain","name origin":"Named after nearby crater Delisle","height":"-","diameter":"30 km"},"geometry":{"type":"Point","coordinates":[-35.79,29.42]}},{"type":"Feature","properties":{"pointType":"Label","name":"Mons Vinogradov","terrainType":"Mountain","name origin":"Aleksandr Pavlovich Vinogradov, chemist","height":"1.4 km","diameter":"25 km"},"geometry":{"type":"Point","coordinates":[-32.52,22.35]}},{"type":"Feature","properties":{"pointType":"Label","name":"Montes Carpatus","terrainType":"Mountain range","name origin":"The Carpathian Mountains, Europe","height":"-","diameter":"361 km"},"geometry":{"type":"Point","coordinates":[-23.62,14.57]}},{"type":"Feature","properties":{"pointType":"Label","name":"Mons La Hire","terrainType":"Mountain","name origin":"Philippe de la Hire, astronomer","height":"1.5 km","diameter":"25 km"},"geometry":{"type":"Point","coordinates":[-25.51,27.66]}},{"type":"Feature","properties":{"pointType":"Label","name":"Montes Jura","terrainType":"Mountain range","name origin":"The Jura Mountains, Europe","height":"-","diameter":"422 km"},"geometry":{"type":"Point","coordinates":[-36.11,47.49]}},{"type":"Feature","properties":{"pointType":"Label","name":"Montes Recti","terrainType":"Mountain range","name origin":"Latin for \"straight range\"","height":"-","diameter":"90 km"},"geometry":{"type":"Point","coordinates":[-19.72,48.3]}},{"type":"Feature","properties":{"pointType":"Label","name":"Montes Teneriffe","terrainType":"Mountain range","name origin":"Tenerife island","height":"-","diameter":"182 km"},"geometry":{"type":"Point","coordinates":[-13.19,47.89]}},{"type":"Feature","properties":{"pointType":"Label","name":"Mons Pico","terrainType":"Mountain","name origin":"Spanish for \"peak\"","height":"2 km","diameter":"25 km"},"geometry":{"type":"Point","coordinates":[-8.87,45.82]}},{"type":"Feature","properties":{"pointType":"Label","name":"Montes Alpes","terrainType":"Mountain range","name origin":"The Alps, Europe","height":"-","diameter":"281 km"},"geometry":{"type":"Point","coordinates":[-0.58,48.36]}},{"type":"Feature","properties":{"pointType":"Label","name":"Mons Blanc","terrainType":"Mountain","name origin":"Mont Blanc, the Alps","height":"3.6 km","diameter":"25 km"},"geometry":{"type":"Point","coordinates":[0.44,45.41]}},{"type":"Feature","properties":{"pointType":"Label","name":"Mons Piton","terrainType":"Mountain","name origin":"El Pitón, a summit of Mount Teide, Tenerife","height":"2.3 km","diameter":"25 km"},"geometry":{"type":"Point","coordinates":[-0.92,40.72]}},{"type":"Feature","properties":{"pointType":"Label","name":"Montes Spitzbergen","terrainType":"Mountain range","name origin":" \tNamed after German for \"sharp peaks\" and for resemblance to the Spitsbergen islands","height":"-","diameter":"60 km"},"geometry":{"type":"Point","coordinates":[-5.21,34.47]}},{"type":"Feature","properties":{"pointType":"Label","name":"Montes Caucasus","terrainType":"Mountain range","name origin":"The Caucasus Mountains, Europe","height":"-","diameter":"445 km"},"geometry":{"type":"Point","coordinates":[9.93,37.52]}},{"type":"Feature","properties":{"pointType":"Label","name":"Montes Haemus","terrainType":"Mountain range","name origin":"Greek name for the Balkan Mountains","height":"-","diameter":"560 km"},"geometry":{"type":"Point","coordinates":[12.03,17.11]}},{"type":"Feature","properties":{"pointType":"Label","name":"Mons Agnes","terrainType":"Mountain","name origin":"Greek feminine name","height":"0.03 km","diameter":"0.65 km"},"geometry":{"type":"Point","coordinates":[5.34,18.66]}},{"type":"Feature","properties":{"pointType":"Label","name":"Mons Ampère","terrainType":"Mountain","name origin":"André-Marie Ampère, physicist","height":"3 km","diameter":"30 km"},"geometry":{"type":"Point","coordinates":[-3.71,19.32]}},{"type":"Feature","properties":{"pointType":"Label","name":"Mons Wolff","terrainType":"Mountain","name origin":"Baron Christian von Wolff, philosopher","height":"3.5 km","diameter":"35 km"},"geometry":{"type":"Point","coordinates":[-6.8,16.88]}},{"type":"Feature","properties":{"pointType":"Label","name":"Montes Apenninus","terrainType":"Mountain range","name origin":"The Apennine Mountains, Italy","height":"-","diameter":"401 km"},"geometry":{"type":"Point","coordinates":[-0.03,19.87]}},{"type":"Feature","properties":{"pointType":"Label","name":"Mons Huygens","terrainType":"Mountain","name origin":"Christiaan Huygens, astronomer","height":"4.7 km","diameter":"40 km"},"geometry":{"type":"Point","coordinates":[-2.86,19.92]}},{"type":"Feature","properties":{"pointType":"Label","name":"Mons Bradley","terrainType":"Mountain","name origin":"James Bradley, astronomer","height":"4.2 km","diameter":"30 km"},"geometry":{"type":"Point","coordinates":[0.38,21.73]}},{"type":"Feature","properties":{"pointType":"Label","name":"Mons Hadley Delta","terrainType":"Mountain","name origin":"Named after nearby Mount Hadley","height":"3.5 km","diameter":"15 km"},"geometry":{"type":"Point","coordinates":[3.71,25.72]}},{"type":"Feature","properties":{"pointType":"Label","name":"Mons Hadley","terrainType":"Mountain","name origin":"John Hadley, inventor","height":"4.6 km","diameter":"25 km"},"geometry":{"type":"Point","coordinates":[4.12,26.69]}},{"type":"Feature","properties":{"pointType":"Label","name":"Montes Archimedes","terrainType":"Mountain range","name origin":"Named after nearby crater Archimedes","height":"-","diameter":"163 km"},"geometry":{"type":"Point","coordinates":[-5.25,25.39]}}]